[]
null
{"_id":"5b9fdd6854882ac6d0c4b1ff","entries":[{"address":"100 Fletcher Dr, Gainesville, FL 32611, United States","coordinates":{"longitude":-82.34563860000002,"latitude":29.6502323},"name":"Academic Advisement - Farrior Hall","code":"AAF"},{"name":"Plant Pathology Research Lab 2","code":"AGRL"},{"address":"1507 W University Ave, Gainesville, FL 32611, United States","coordinates":{"longitude":-82.3418895,"latitude":29.6515682},"name":"Anderson Hall","code":"AND"},{"address":"Gainesville, FL 32608, United States","coordinates":{"longitude":-82.351627,"latitude":29.6311971},"name":"Animal Sciences","code":"ANS"},{"name":"Animal/Dairy Science Building","code":"ANSC"},{"address":"1600 SW Archer Rd, Gainesville, FL 32610, United States","coordinates":{"longitude":-82.343777,"latitude":29.6399441},"name":"Academic Research - Health Sciences Center","code":"ARB"},{"address":"1389 Stadium Rd, Gainesville, FL 32611, United States","coordinates":{"longitude":-82.3403431,"latitude":29.6477756},"name":"Architecture","code":"ARCH"},{"address":"Elmore Hall for Administrative Services, Gainesville, FL 32607, USA","coordinates":{"longitude":-82.3661789,"latitude":29.6434801},"name":"Elmore Hall","code":"ASF"},{"address":"333 Newell Dr, Gainesville, FL 32611, United States","coordinates":{"longitude":-82.3428428,"latitude":29.6490269},"name":"University Auditorium","code":"AUD"},{"name":"Aquatic Weed Annex","code":"AWAX"},{"address":"Bartram Hall, Gainesville, FL 32603, USA","coordinates":{"longitude":-82.34440939999999,"latitude":29.6439198},"name":"Bartram Hall","code":"BAR"},{"address":"Gainesville, FL 32603, United States","coordinates":{"longitude":-82.3404853,"latitude":29.6441511},"name":"Beaty Commons","code":"BEC"},{"address":"Gainesville, FL 32611, United States","coordinates":{"longitude":-82.3549302,"latitude":29.6436325},"name":"Benton Hall","code":"BEN"},{"address":"Bruton-Geer Hall, Gainesville, FL 32603, USA","coordinates":{"longitude":-82.3590286,"latitude":29.6492321},"name":"Bruton-Geer Hall","code":"BGH"},{"address":"365 Weil Hall, Gainesville, FL 32611, United States","coordinates":{"longitude":-82.3484143,"latitude":29.6484088},"name":"Black Hall - Environmental Science","code":"BLK"},{"address":"919 N Broad St, Brooksville, FL 34601, United States","coordinates":{"longitude":-82.3775697,"latitude":28.5663939},"name":"Broad Biomedical Engineering Building","code":"BME"},{"address":"1275 Center Dr, Gainesville, FL 32611, United States","coordinates":{"longitude":-82.3455827,"latitude":29.6406329},"name":"Biomedical Sciences","code":"BMS"},{"address":"Broward Hall, 680 Broward Dr, Gainesville, FL 32603, USA","coordinates":{"longitude":-82.3420708,"latitude":29.6465352},"name":"Broward Hall","code":"BRO"},{"address":"Gainesville, FL 32603, United States","coordinates":{"longitude":-82.34574870000002,"latitude":29.6488872},"name":"Bryant Space Science Center","code":"BRT"},{"address":"1384 Union Rd, Gainesville, FL 32611, United States","coordinates":{"longitude":-82.3402381,"latitude":29.65131189999999},"name":"Bryan Hall","code":"BRY"},{"address":"2001 S Lincoln Ave, Urbana, IL 61802, United States","coordinates":{"longitude":-88.22091189999999,"latitude":40.0929927},"name":"Veterinary Medicine - Basic Sciences","code":"BSU"},{"name":"Course viewed only on cable TV","code":"CABL"},{"address":"1475 Union Rd, Gainesville, FL 32611, United States","coordinates":{"longitude":-82.34172290000001,"latitude":29.6490716},"name":"Carleton Auditorium","code":"CAR"},{"address":"Classroom Bldg 105, Gainesville, FL 32603, USA","coordinates":{"longitude":-82.3429757,"latitude":29.6529864},"name":"Classroom Building 105","code":"CBD"},{"address":"2033 Mowry Rd, Gainesville, FL 32608, United States","coordinates":{"longitude":-82.3516905,"latitude":29.6381861},"name":"Cancer/Genetics Research","code":"CGRC"},{"address":"Gainesville, FL 32611, United States","coordinates":{"longitude":-82.3549302,"latitude":29.6436325},"name":"Chemical Engineering","code":"CHE"},{"address":"125 Buckman Dr, Gainesville, FL 32611, United States","coordinates":{"longitude":-82.344152,"latitude":29.6508873},"name":"Chemistry Laboratory Building","code":"CLB"},{"address":"1600 SW Archer Rd, Gainesville, FL 32610, United States","coordinates":{"longitude":-82.343777,"latitude":29.6399441},"name":"Communicore - Health Sciences Center","code":"COM"},{"address":"687 McCarty Dr, Gainesville, FL 32603, United States","coordinates":{"longitude":-82.346482,"latitude":29.6460125},"name":"Constans Theatre","code":"CON"},{"name":"Citrus Hall, Ben Hill Griffin","code":"CREC"},{"address":"Gainesville, FL 32611, United States","coordinates":{"longitude":-82.3549302,"latitude":29.6436325},"name":"Carr Hall","code":"CRR"},{"name":"Crops and Soils Field Lab","code":"CSFL"},{"address":"432 Newell Dr, Gainesville, FL 32611, United States","coordinates":{"longitude":-82.344042,"latitude":29.64811109999999},"name":"Computer Science Engineering","code":"CSE"},{"address":"Gainesville, FL 32603, United States","coordinates":{"longitude":-82.3439549,"latitude":29.64926969999999},"name":"Dauer Hall - Arts & Sciences","code":"DAU"},{"address":"Dental Science Bldg, Iowa City, IA 52242, USA","coordinates":{"longitude":-91.55115090000001,"latitude":41.662549},"name":"Dental Science Building","code":"DSB"},{"address":"Gainesville, FL 32608, United States","coordinates":{"longitude":-82.3646433,"latitude":29.6354601},"name":"Environmental Stress Lab","code":"ESL"},{"address":"1881 Natural Area Dr, Gainesville, FL 32608, United States","coordinates":{"longitude":-82.3673518,"latitude":29.63483320000001},"name":"Entomology - Nematology","code":"EYN"},{"address":"1389 Stadium Rd, Gainesville, FL 32611, United States","coordinates":{"longitude":-82.3403431,"latitude":29.6477756},"name":"Fine Arts A","code":"FAA"},{"address":"400 SW 13th St, Gainesville, FL 32611, United States","coordinates":{"longitude":-82.3396763,"latitude":29.6482567},"name":"Fine Arts B (Gallery)","code":"FAB"},{"address":"Gainesville, FL 32601, United States","coordinates":{"longitude":-82.34041909999999,"latitude":29.6477604},"name":"Fine Arts C","code":"FAC"},{"address":"101 Fine Arts Bldg A, Gainesville, FL 32611, United States","coordinates":{"longitude":-82.3405634,"latitude":29.6481722},"name":"Fine Arts D","code":"FAD"},{"address":"Fifield Hall, Gainesville, FL 32603, USA","coordinates":{"longitude":-82.36116679999999,"latitude":29.63838730000001},"name":"Fifield Hall","code":"FIF"},{"address":"155 Research Rd, Quincy, FL 32351, United States","coordinates":{"longitude":-84.5928081,"latitude":30.5450208},"name":"Plant Pathology Research Lab 1","code":"FIRL"},{"address":"Woodlawn Dr, Gainesville, FL 32603, United States","coordinates":{"longitude":-82.3543578,"latitude":29.6466255},"name":"Flavet Field","code":"FLAV"},{"address":"Florida Gymnasium, Gainesville, FL 32608, USA","coordinates":{"longitude":-82.34724109999999,"latitude":29.64951450000001},"name":"Florida Gym","code":"FLG"},{"address":"80 Newell Dr, Gainesville, FL 32611, United States","coordinates":{"longitude":-82.34405009999999,"latitude":29.6513768},"name":"Keene-Flint Hall","code":"FLI"},{"address":"230 Newell Dr, Gainesville, FL 32611, United States","coordinates":{"longitude":-82.34367999999999,"latitude":29.6500715},"name":"Griffin-Floyd Hall","code":"FLO"},{"address":"Gainesville, FL 32611, United States","coordinates":{"longitude":-82.3549302,"latitude":29.6436325},"name":"Food Science and Human Nutrition","code":"FSN"},{"address":"1368 Union Rd, Gainesville, FL 32611, United States","coordinates":{"longitude":-82.3401306,"latitude":29.65075890000001},"name":"Gerson Hall","code":"GER"},{"address":"United States","coordinates":{"longitude":-82.3502568,"latitude":29.6458103},"name":"Graham Hall","code":"GRAO"},{"address":"1523 Union Rd, Gainesville, FL 32611, United States","coordinates":{"longitude":-82.34205949999999,"latitude":29.6492787},"name":"Grinter Hall - The Graduate School","code":"GRI"},{"address":"3259 Hull Rd, Gainesville, FL 32607, United States","coordinates":{"longitude":-82.3702266,"latitude":29.6370616},"name":"Harn Museum of Art","code":"HARN"},{"address":"653 W 8th St, Jacksonville, FL 32209, United States","coordinates":{"longitude":-81.6635251,"latitude":30.3470314},"name":"Health Science Center Admin. Services","code":"HCAD"},{"address":"1401 E 1st St, Duluth, MN 55805, United States","coordinates":{"longitude":-92.0818267,"latitude":46.8013063},"name":"Human Development Center","code":"HDC"},{"address":"Hough Hall, Gainesville, FL 32611, USA","coordinates":{"longitude":-82.3406662,"latitude":29.6504049},"name":"Hough Hall","code":"HGS"},{"address":"Spessard L. Holland Law Center, Gainesville, FL 32603, USA","coordinates":{"longitude":-82.35915059999999,"latitude":29.6498009},"name":"Holland Law Center","code":"HOL"},{"address":"Health Professions, Nursing, Pharmacy Bldg, 1225 Center Dr, Gainesville, FL 32603, USA","coordinates":{"longitude":-82.3452497,"latitude":29.6416764},"name":"Health Professions, Nursing and Pharmacy Complex","code":"HPNP"},{"name":"South Barn - Sam Wall Animal Science","code":"HTUS"},{"address":"Hub, 1765 Stadium Rd, Gainesville, FL 32603, United States","coordinates":{"longitude":-82.34548769999999,"latitude":29.6480995},"name":"The Hub - International Studies Center","code":"HUB"},{"address":"Museum Rd, Gainesville, FL 32601, United States","coordinates":{"longitude":-82.3525058,"latitude":29.644475},"name":"Hume Hall","code":"HUME"},{"address":"1510 W University Ave, Gainesville, FL 32603, United States","coordinates":{"longitude":-82.3421446,"latitude":29.652285},"name":"Institute of Black Culture","code":"IBLC"},{"address":"Gainesville, FL 32611, United States","coordinates":{"longitude":-82.3549302,"latitude":29.6436325},"name":"Institute of Hispanic-Latino Cultures","code":"IHLC"},{"address":"Gainesville, FL 32603, United States","coordinates":{"longitude":-82.3443187,"latitude":29.6465201},"name":"IFAS Information Technology","code":"IIT"},{"address":"Fletcher Dr, Gainesville, FL 32603, United States","coordinates":{"longitude":-82.34652009999999,"latitude":29.6495392},"name":"Infirmary","code":"INF"},{"address":"1515 Museum Rd, Gainesville, FL 32612, United States","coordinates":{"longitude":-82.34155299999999,"latitude":29.6444873},"name":"Jennings Hall B","code":"JENB"},{"address":"1231 SW 3rd Ave, Gainesville, FL 32601, United States","coordinates":{"longitude":-82.33802899999999,"latitude":29.64918299999999},"name":"Keys Complex - Student Housing","code":"KEY"},{"address":"Larsen Hall, Gainesville, FL 32603, USA","coordinates":{"longitude":-82.34738279999999,"latitude":29.6431067},"name":"Larsen Hall","code":"LAR"},{"address":"1545 W University Ave, Gainesville, FL 32603, United States","coordinates":{"longitude":-82.3417565,"latitude":29.6508246},"name":"Library West","code":"LBW"},{"address":"Leigh Hall, Gainesville, FL 32603, USA","coordinates":{"longitude":-82.3442503,"latitude":29.6504567},"name":"Leigh Hall","code":"LEI"},{"address":"Stadium Rd, Gainesville, FL 32601, United States","coordinates":{"longitude":-82.3407919,"latitude":29.648841},"name":"Little Hall","code":"LIT"},{"address":"United States","coordinates":{"longitude":-82.3511053,"latitude":29.6339886},"name":"Livestock Pavilion, Webb","code":"LSP"},{"address":"Gainesville, FL 32603, United States","coordinates":{"longitude":-82.3490228,"latitude":29.6476334},"name":"Materials Engineering","code":"MAE"},{"address":"Gainesville, FL 32611, United States","coordinates":{"longitude":-82.3549302,"latitude":29.6436325},"name":"Mechanical and Aerospace Engineering, Bldg. A","code":"MAEA"},{"name":"Mechanical and Aerospace Engineering, Bldg. B","code":"MAEB"},{"name":"Mechanical and Aerospace Engineering, Bldg. C","code":"MAEC"},{"address":"1405 W University Ave, Gainesville, FL 32611, United States","coordinates":{"longitude":-82.3410518,"latitude":29.65163059999999},"name":"Matherly Hall","code":"MAT"},{"address":"Gainesville, FL 32611, United States","coordinates":{"longitude":-82.3549302,"latitude":29.6436325},"name":"McKnight Brain Institute","code":"MBI"},{"address":"McCarty Hall C, Gainesville, FL 32603, USA","coordinates":{"longitude":-82.3453474,"latitude":29.6466758},"name":"McCarty Hall, Bldg. A","code":"MCCA"},{"address":"McCarty Hall B, Gainesville, FL 32603, USA","coordinates":{"longitude":-82.34492809999999,"latitude":29.6467422},"name":"McCarty Hall, Bldg. B","code":"MCCB"},{"address":"McCarty Hall C, Gainesville, FL 32603, USA","coordinates":{"longitude":-82.3453474,"latitude":29.6466758},"name":"McCarty Hall, Bldg. C","code":"MCCC"},{"address":"McCarty Hall D, Gainesville, FL 32603, USA","coordinates":{"longitude":-82.3443186,"latitude":29.6465202},"name":"McCarty Hall, Bldg D","code":"MCCD"},{"address":"McGuire Center for Lepidoptera Research, Gainesville, FL 32608, USA","coordinates":{"longitude":-82.3712611,"latitude":29.6358453},"name":"McGuire Center for Lepidoptera Research","code":"MCG"},{"address":"1355 Museum Drive, Gainesville, FL 32603, United States","coordinates":{"longitude":-82.3628019,"latitude":29.6399739},"name":"Microbiology and Cell Science","code":"MCSB"},{"name":"Medical Sciences - Stetson Hall","code":"MSB"},{"address":"444 Newell Dr, Gainesville, FL 32611, United States","coordinates":{"longitude":-82.3439199,"latitude":29.6479572},"name":"Marston Science Library","code":"MSL"},{"address":"Gainesville, FL 32611, United States","coordinates":{"longitude":-82.3425575,"latitude":29.6481303},"name":"Music Building","code":"MUB"},{"address":"1659 Museum Rd, Gainesville, FL 32611, United States","coordinates":{"longitude":-82.3438233,"latitude":29.6445166},"name":"Florida Museum of Natural History - Dickinson Hall","code":"MUS"},{"address":"1949 Stadium Rd, Gainesville, FL 32611, United States","coordinates":{"longitude":-82.3485106,"latitude":29.6483809},"name":"Engineering Building","code":"NEB"},{"address":"Newell Hall, Gainesville, FL 32603, USA","coordinates":{"longitude":-82.34505709999999,"latitude":29.6490871},"name":"Newell Hall","code":"NEW"},{"address":"2001 Museum Rd, Gainesville, FL 32603, United States","coordinates":{"longitude":-82.3496895,"latitude":29.6437825},"name":"Physics Building","code":"NPB"},{"address":"Gainesville, FL 32611, United States","coordinates":{"longitude":-82.3549302,"latitude":29.6436325},"name":"Nuclear Reactor","code":"NRB"},{"address":"119 W Main St, Norman, OK 73069, United States","coordinates":{"longitude":-97.4448615,"latitude":35.220559},"name":"Norman Gymnasium","code":"NRG"},{"address":"Norman Hall, Gainesville, FL 32601, USA","coordinates":{"longitude":-82.3381103,"latitude":29.6469686},"name":"Norman Hall","code":"NRN"},{"address":"Norman Hall Addition, Gainesville, FL 32601, USA","coordinates":{"longitude":-82.33768599999999,"latitude":29.64664469999999},"name":"Norman Hall Addition","code":"NRNA"},{"address":"1095 Nuclear Science Rd, College Station, TX 77843, United States","coordinates":{"longitude":-96.3629133,"latitude":30.5810924},"name":"Nuclear Sciences Center","code":"NSC"},{"address":"1207 W Gregory Dr, Urbana, IL 61801, United States","coordinates":{"longitude":-88.22516139999999,"latitude":40.10381579999999},"name":"Animal Nutrition Labratory","code":"NUL"},{"address":"Newins-Ziegler Hall, Gainesville, FL 32603, USA","coordinates":{"longitude":-82.345686,"latitude":29.64539199999999},"name":"Newins-Ziegler Hall","code":"NZH"},{"address":"1600 SW Archer Rd, Gainesville, FL 32610, United States","coordinates":{"longitude":-82.343434,"latitude":29.6398626},"name":"Office of Development and Alumni Affairs","code":"ODAA"},{"address":"30 Alta Rd, Palo Alto, CA 94305, United States","coordinates":{"longitude":-122.181827,"latitude":37.4191274},"name":"Student Observatory","code":"OBS"},{"address":"3201 Hull Rd, Gainesville, FL 32611, United States","coordinates":{"longitude":-82.36930579999999,"latitude":29.6352583},"name":"Phillips Center for the Performing Arts","code":"PCPA"},{"address":"Union Rd, Gainesville, FL 32603, United States","coordinates":{"longitude":-82.3419924,"latitude":29.6500771},"name":"Peabody Hall","code":"PEA"},{"address":"432 Newell Dr, Gainesville, FL 32611, United States","coordinates":{"longitude":-73.8639555,"latitude":41.1091195},"name":"Phelps Laboratory","code":"PHL"},{"address":"1080 SW 11th St, Gainesville, FL 32601, United States","coordinates":{"longitude":-82.3346766,"latitude":29.64006539999999},"name":"P. K. Yonge Developmental Research School, 1080 SW 11 Street","code":"PKY"},{"address":"Gainesville, FL 32603, United States","coordinates":{"longitude":-82.3409362,"latitude":29.6462255},"name":"Florida Pool","code":"POOL"},{"address":"3215 Hull Rd, Gainesville, FL 32611, United States","coordinates":{"longitude":-82.3704006,"latitude":29.6358224},"name":"Powell Hall - New Museum of Natural History","code":"POW"},{"address":"Physical Plant Offices, Gainesville, FL 32607, USA","coordinates":{"longitude":-82.3705092,"latitude":29.6443197},"name":"Physical Plant Offices","code":"PPD"},{"address":"Gainesville, FL 32611, United States","coordinates":{"longitude":-82.3549302,"latitude":29.6436325},"name":"Food and Environmental Toxicology Lab","code":"PRL"},{"address":"1515 SW Archer Rd, Gainesville, FL 32608, United States","coordinates":{"longitude":-82.3423068,"latitude":29.6388866},"name":"Shands Patient Services","code":"PSB"},{"address":"Gainesville, FL 32611, United States","coordinates":{"longitude":-82.3549302,"latitude":29.6436325},"name":"Plant Science Facility","code":"PSF"},{"address":"3894 Courtney St, Bethlehem, PA 18017, United States","coordinates":{"longitude":-75.37462699999999,"latitude":40.671417},"name":"Particle Sciences and Technology","code":"PST"},{"address":"2121 NW 40th Terrace Ste B, Gainesville, FL 32605, United States","coordinates":{"longitude":-82.38416389999999,"latitude":29.67284690000001},"name":"Psychology","code":"PSY"},{"address":"Pugh Hall, Gainesville, FL 32603, USA","coordinates":{"longitude":-82.34546309999999,"latitude":29.6494289},"name":"Pugh Hall","code":"PUGH"},{"address":"114 Rec Center, Gainesville, FL 32611, United States","coordinates":{"longitude":-82.3464309,"latitude":29.650204},"name":"Recreation Center Dining","code":"RCD"},{"address":"686 Museum Rd, Gainesville, FL 32611, United States","coordinates":{"longitude":-82.3476523,"latitude":29.6463395},"name":"Reitz Union","code":"REI"},{"address":"244 Fletcher Dr, Gainesville, FL 32603, United States","coordinates":{"longitude":-82.34675969999999,"latitude":29.6501107},"name":"Recreation and Fitness Center","code":"RFC"},{"address":"Rhines Hall, Gainesville, FL 32603, USA","coordinates":{"longitude":-82.34902249999999,"latitude":29.6476341},"name":"Rhines Hall","code":"RHN"},{"address":"55 Dimock St, Boston, MA 02119, United States","coordinates":{"longitude":-71.0979212,"latitude":42.31957420000001},"name":"Reed Lab","code":"RLA"},{"address":"1911 SW 34th St, Gainesville, FL 32608, United States","coordinates":{"longitude":-82.371461,"latitude":29.634407},"name":"Research Laboratory","code":"RL1"},{"address":"Rinker Hall, 573 Newell Dr, Gainesville, FL 32603, USA","coordinates":{"longitude":-82.34316059999999,"latitude":29.64695920000001},"name":"Rinker Hall","code":"RNK"},{"address":"United States","coordinates":{"longitude":-82.3449972,"latitude":29.6449409},"name":"Rogers Hall","code":"ROG"},{"address":"Rolfs Hall, Gainesville, FL 32603, USA","coordinates":{"longitude":-82.3444921,"latitude":29.6492897},"name":"Rolfs Hall","code":"ROL"},{"address":"Gainesville, FL 32611, United States","coordinates":{"longitude":-82.3549302,"latitude":29.6436325},"name":"Steinbrenner Band Hall","code":"SBH"},{"address":"1680 Union Rd, Gainesville, FL 32611, United States","coordinates":{"longitude":-82.34416809999999,"latitude":29.6499992},"name":"Sisler Hall - Chemistry Research Bldg","code":"SIS"},{"address":"1545 W University Ave, University of Florida, Gainesville, FL 32611, United States","coordinates":{"longitude":-82.34281469999999,"latitude":29.6515513},"name":"Library East, Smathers","code":"SMA"},{"address":"Gainesville, FL 32603, United States","coordinates":{"longitude":-82.3409362,"latitude":29.6462255},"name":"Stephen C. O'Connell Center Pool","code":"SOC"},{"address":"Diamond Village Commons Bldg, 1402 Diamond Rd, Gainesville, FL 32603, USA","coordinates":{"longitude":-82.34048229999999,"latitude":29.6423855},"name":"Springs Commons Building","code":"SPRC"},{"address":"Gainesville, FL 32603, United States","coordinates":{"longitude":-82.3443187,"latitude":29.6465201},"name":"IFAS Support Services","code":"SRPT"},{"address":"1478 Union Rd, Gainesville, FL 32611, United States","coordinates":{"longitude":-82.34160899999999,"latitude":29.6501881},"name":"Criser Hall","code":"SSB"},{"address":"157 Gale Lemerand Dr, Gainesville, FL 32601, United States","coordinates":{"longitude":-82.3485788,"latitude":29.6499357},"name":"Stadium, Ben Hill Griffin","code":"STA"},{"address":"1454, 100 Stuzin Hall Union Rd, Gainesville, FL 32611, United States","coordinates":{"longitude":-82.3411782,"latitude":29.650815},"name":"Stuzin Hall - Business Building","code":"STZ"},{"address":"13120 Vonn Rd, Largo, FL 33774, United States","coordinates":{"longitude":-82.8187822,"latitude":27.8920203},"name":"SW Recreation Complex","code":"SWC"},{"address":"4645 NW 8th Ave, Gainesville, FL 32605, United States","coordinates":{"longitude":-82.3928509,"latitude":29.659113},"name":"Teaching Hospital and Clinics, Shands","code":"THC"},{"address":"Gainesville, FL 32611, United States","coordinates":{"longitude":-82.3549302,"latitude":29.6436325},"name":"Tigert Hall - UF Administration","code":"TIG"},{"address":"330 Newell Dr, Gainesville, FL 32611, United States","coordinates":{"longitude":-82.343747,"latitude":29.6489642},"name":"Turlington Hall","code":"TUR"},{"address":"Ustler Hall, Gainesville, FL 32608, USA","coordinates":{"longitude":-82.3468705,"latitude":29.65044320000001},"name":"Ustler Hall","code":"UST"},{"address":"204 Van Fleet Hall, Gainesville, FL 32611, United States","coordinates":{"longitude":-82.3511003,"latitude":29.6485548},"name":"Van Fleet Hall - ROTC","code":"VAN"},{"address":"2015 SW 16th Ave, Gainesville, FL 32608, United States","coordinates":{"longitude":-82.3502601,"latitude":29.6332527},"name":"Veterinary Science","code":"VET"},{"address":"Veterinary Medicine Academic Bldg, Gainesville, FL 32608, USA","coordinates":{"longitude":-82.3487936,"latitude":29.6338194},"name":"Veterinary Medicine - Academic Wing","code":"VMAW"},{"address":"1489 Union Rd, Gainesville, FL 32611, United States","coordinates":{"longitude":-82.34153959999999,"latitude":29.64937919999999},"name":"Walker Hall","code":"WAL"},{"address":"1001 George Wallace Dr, Gadsden, AL 35903, United States","coordinates":{"longitude":-85.9915726,"latitude":33.9958184},"name":"Wallace Hall","code":"WALC"},{"name":"WARP Haus - PHP Midtowne Center","code":"WARP"},{"address":"Lake Wauburg, Florida 32667, USA","coordinates":{"longitude":-82.30313,"latitude":29.5298432},"name":"Lake Wauburg","code":"WAU"},{"address":"Weil Hall, Gainesville, FL 32603, USA","coordinates":{"longitude":-82.3485109,"latitude":29.64838079999999},"name":"Weil Hall","code":"WEIL"},{"address":"Weimer Hall, Gainesville, FL 32603, USA","coordinates":{"longitude":-82.34752759999999,"latitude":29.6478351},"name":"Weimer Hall","code":"WEIM"},{"address":"Gainesville, FL 32611, United States","coordinates":{"longitude":-82.3549302,"latitude":29.6436325},"name":"Williamson Hall","code":"WM"},{"address":"Weed Sciences Field Bldg, Gainesville, FL 32603, USA","coordinates":{"longitude":-82.36376249999999,"latitude":29.6391841},"name":"Weed Sciences Field Building","code":"WSFL"},{"address":"Gainesville, FL 32608, United States","coordinates":{"longitude":-82.3478071,"latitude":29.6498808},"name":"Yon Hall","code":"YON"}]}
